{
						"nameCountry":"Bolivia",
						"coi":"BOL",
						"domain":".bo",
						"capitalCountry":"Sucre",
						"populationCountry":"11.633.371",
						"SurfaceCountry":"1.098.580 km2",
						"religionCountry":"Mayoritariamente Cristianismo",
						"coinCountry":"Bolivianos",
            "states":[
							{
								"nameState":"Santa Cruz de la Sierra",
								"lat":"-17.78629",
								"lon":"-63.18117"
								
							},
							{
								"nameState":"Cochabamba",
								"lat":"-17.3895",
								"lon":"-66.1568"
								
						
							},
							{
								"nameState":"La Paz",
								"lat":"-16.5",
								"lon":"-68.15"
								
						
							},
							{
								"nameState":"Sucre",
								"lat":"10.96854",
								"lon":"-65.26274"
							},
							{
								"nameState":"Oruro",
								"lat":"-17.98333",
								"lon":"-67.15"
						
							},
							{
								"nameState":"Tarija",
								"lat":"-21.53549",
								"lon":"-64.72956"
						
							},
							{
								"nameState":"Montero",
								"lat":"-17.33866",
								"lon":"-63.2505"
						
							},
							{
								"nameState":"Quillacollo",
								"lat":"-17.39228",
								"lon":"-66.27838"
						
							},
							{
								"nameState":"Trinidad",
								"lat":"-14.83333",
								"lon":"-64.9"
						
							},
							{
								"nameState":"Sacaba",
								"lat":"-17.39799",
								"lon":"-66.03825"
						
							},
							{
								"nameState":"Tiquipaya",
								"lat":"-17.33801",
								"lon":"-66.21579"
						
							},
							{
								"nameState":"Villazón",
								"lat":"-22.08659",
								"lon":"-65.59422"
						
							},
							{
								"nameState":"Bermejo",
								"lat":"-22.73206",
								"lon":"-64.33724"
						
							},
							{
								"nameState":"San Ignacio de Velasco",
								"lat":"-16.36667",
								"lon":"-60.95"
						
							},
							{
								"nameState":"Ciudad Potosi",
								"lat":"-19.58361",
								"lon":"-65.75306"
						
							},
							{
								"nameState":"Tupiza",
								"lat":"-21.44345",
								"lon":"-65.71875"
						
							},
							{
								"nameState":"Cobija",
								"lat":"-11.02671",
								"lon":"-68.76918"
						
							},
							{
								"nameState":"Villamontes",
								"lat":"-21.26235",
								"lon":"-63.46903"
							},
							{
								"nameState":"Concepción",
								"lat":"-16.43333",
								"lon":"-60.9"
						
							},
							{
								"nameState":"Camargo",
								"lat":"-20.64064",
								"lon":"-65.20893"
						
							}
						]
            
}