{
    "nameCountry": "Chile",
    "coi": "CHI",
    "domain": ".cl",
    "capitalCountry": "Santiago de Chile",
    "populationCountry": "19.458.310",
    "SurfaceCountry": "756.700 km2",
    "religionCountry": "Mayoritariamente Cristianismo",
    "coinCountry": "Pesos chilenos",
    "agreementsCountry": [],
    "states": [
      {
        "nameState": "Santiago",
        "lat": "-33.45694",
        "lon": "-70.64827",
        "cityes": []
      },
      {
        "nameState": "Puente Alto",
        "lat": "-33.61169",
        "lon": "-70.57577",
        "cityes": []
      },
      {
        "nameState": "Antofagasta",
        "lat": "-23.65236",
        "lon": "-70.3954",
        "cityes": []
      },
      {
        "nameState": "Viña del Mar",
        "lat": "-33.02457",
        "lon": "-71.55183",
        "cityes": []
      },
      {
        "nameState": "Valparaíso",
        "lat": "-33.036",
        "lon": "-71.62963",
        "cityes": []
      },
      {
        "nameState": "Talcahuano",
        "lat": "-36.72494",
        "lon": "-73.11684",
        "cityes": []
      },
      {
        "nameState": "San Bernardo",
        "lat": "-33.59217",
        "lon": "-70.6996",
        "cityes": []
      },
      {
        "nameState": "Temuco",
        "lat": "-38.73965",
        "lon": "-72.59842",
        "cityes": []
      },
      {
        "nameState": "Iquique",
        "lat": "-20.21326",
        "lon": "-70.15027",
        "cityes": []
      },
      {
        "nameState": "Concepción",
        "lat": "-36.82699",
        "lon": "-73.04977",
        "cityes": []
      },
      {
        "nameState": "Rancagua",
        "lat": "-34.17083",
        "lon": "-70.74444",
        "cityes": []
      },
      {
        "nameState": "La Pintana",
        "lat": "-33.58331",
        "lon": "-70.63419",
        "cityes": []
      },
      {
        "nameState": "Talca",
        "lat": "-35.4264",
        "lon": "-71.65542",
        "cityes": []
      },
      {
        "nameState": "Arica",
        "lat": "-18.4746",
        "lon": "-70.29792",
        "cityes": []
      },
      {
        "nameState": "Coquimbo",
        "lat": "-29.95332",
        "lon": "-71.33947",
        "cityes": []
      },
      {
        "nameState": "Puerto Montt",
        "lat": "-41.4693",
        "lon": "-72.94237",
        "cityes": []
      },
      {
        "nameState": "La Serena",
        "lat": "-29.90453",
        "lon": "-71.24894",
        "cityes": []
      },
      {
        "nameState": "Chillán",
        "lat": "-36.60664",
        "lon": "-72.10344",
        "cityes": []
      },
      {
        "nameState": "Villa Alemana",
        "lat": "-33.04222",
        "lon": "-71.37333",
        "cityes": []
      },
      {
        "nameState": "Calama",
        "lat": "-22.45667",
        "lon": "-68.92371",
        "cityes": []
      }
    ],
    "__v": 0
  }